{
  "version": "1.0.0",
  "lastUpdated": "2025-11-08T00:00:00Z",
  "totalStores": 10,
  "stores": [
    {
      "id": 1,
      "name": "맛있는 한식당",
      "address": "서울특별시 강남구 테헤란로 152",
      "roadAddress": "서울특별시 강남구 테헤란로 152",
      "market": "역삼전통시장",
      "category": "음식점",
      "subCategory": "한식",
      "types": ["card", "paper"],
      "lat": 37.5012,
      "lng": 127.0396,
      "phone": "02-1234-5678",
      "naverUrl": "https://map.naver.com/v5/search/맛있는%20한식당%20역삼"
    },
    {
      "id": 2,
      "name": "신선마트",
      "address": "서울특별시 강남구 역삼동 825-20",
      "roadAddress": "서울특별시 강남구 언주로 428",
      "category": "식료품",
      "subCategory": "슈퍼마켓",
      "types": ["card", "paper", "mobile"],
      "lat": 37.4979,
      "lng": 127.0376,
      "phone": "02-2345-6789"
    },
    {
      "id": 3,
      "name": "커피향기",
      "address": "서울특별시 강남구 역삼동 736-20",
      "roadAddress": "서울특별시 강남구 테헤란로 156",
      "category": "음식점",
      "subCategory": "카페",
      "types": ["card"],
      "lat": 37.5015,
      "lng": 127.0405,
      "phone": "02-3456-7890"
    },
    {
      "id": 4,
      "name": "GS주유소 역삼점",
      "address": "서울특별시 강남구 역삼동 678-10",
      "roadAddress": "서울특별시 강남구 강남대로 396",
      "category": "주유소",
      "types": ["card"],
      "lat": 37.4965,
      "lng": 127.0288
    },
    {
      "id": 5,
      "name": "봉평메밀국수",
      "address": "서울특별시 강남구 논현동 91-5",
      "roadAddress": "서울특별시 강남구 강남대로 406",
      "category": "음식점",
      "subCategory": "한식",
      "types": ["card", "paper"],
      "lat": 37.5021,
      "lng": 127.0250,
      "phone": "02-4567-8901"
    },
    {
      "id": 6,
      "name": "편의점24",
      "address": "서울특별시 강남구 역삼동 823-15",
      "roadAddress": "서울특별시 강남구 언주로 430",
      "category": "식료품",
      "subCategory": "편의점",
      "types": ["card", "mobile"],
      "lat": 37.4985,
      "lng": 127.0382
    },
    {
      "id": 7,
      "name": "이탈리아 레스토랑",
      "address": "서울특별시 강남구 논현동 235-8",
      "roadAddress": "서울특별시 강남구 학동로 426",
      "category": "음식점",
      "subCategory": "양식",
      "types": ["card"],
      "lat": 37.5033,
      "lng": 127.0295,
      "phone": "02-5678-9012"
    },
    {
      "id": 8,
      "name": "프레시마트",
      "address": "서울특별시 강남구 역삼동 679-3",
      "roadAddress": "서울특별시 강남구 테헤란로 140",
      "market": "역삼전통시장",
      "category": "식료품",
      "subCategory": "슈퍼마켓",
      "types": ["card", "paper", "mobile"],
      "lat": 37.4998,
      "lng": 127.0350,
      "phone": "02-6789-0123"
    },
    {
      "id": 9,
      "name": "중국집 명가",
      "address": "서울특별시 강남구 역삼동 735-10",
      "roadAddress": "서울특별시 강남구 테헤란로 145",
      "category": "음식점",
      "subCategory": "중식",
      "types": ["card", "paper"],
      "lat": 37.5005,
      "lng": 127.0415,
      "phone": "02-7890-1234"
    },
    {
      "id": 10,
      "name": "일본라멘",
      "address": "서울특별시 강남구 논현동 168-5",
      "roadAddress": "서울특별시 강남구 강남대로 410",
      "category": "음식점",
      "subCategory": "일식",
      "types": ["card"],
      "lat": 37.5028,
      "lng": 127.0268
    }
  ]
}
